{"type":"FeatureCollection","features":[{"type":"Feature","properties":{"nombre":"San Ignacio Guazú","fundacion":1609,"fundador":"","cierre":"","poblacion":"","nombre_alternativo":"","nombre_antiguo":"","wikipedia":"","sitio_web":"https://es.wikipedia.org/wiki/San_Ignacio_Guaz%C3%BA_(Paraguay)","foto":"","website:whc.unesco":""},"geometry":{"type":"Point","coordinates":[-57.0239452,-26.8901438]}},{"type":"Feature","properties":{"nombre":"Nuestra Señora de Loreto","fundacion":1610,"fundador":"","cierre":1767,"poblacion":"","nombre_alternativo":"","nombre_antiguo":"","wikipedia":"es:Nuestra Señora de Loreto (Argentina)","sitio_web":"https://es.wikipedia.org/wiki/Nuestra_Se%C3%B1ora_de_Loreto_(Argentina)","foto":"https://upload.wikimedia.org/wikipedia/commons/thumb/5/50/Ruinas_Loreto_Iglesia_02.jpg/1280px-Ruinas_Loreto_Iglesia_02.jpg","website:whc.unesco":"http://whc.unesco.org/en/list/275"},"geometry":{"type":"Point","coordinates":[-55.5159759521484,-27.3324301439391]}},{"type":"Feature","properties":{"nombre":"San Ignacio Miní","fundacion":1611,"fundador":"","cierre":1767,"poblacion":"","nombre_alternativo":"","nombre_antiguo":"","wikipedia":"es:San Ignacio Miní","sitio_web":"https://es.wikipedia.org/wiki/San_Ignacio_Min%C3%AD","foto":"https://upload.wikimedia.org/wikipedia/commons/thumb/d/d6/San_Ignacio_Min%C3%AD-2.jpg/1024px-San_Ignacio_Min%C3%AD-2.jpg","website:whc.unesco":"http://whc.unesco.org/en/list/275"},"geometry":{"type":"Point","coordinates":[-55.5316346883773,-27.2544817430077]}},{"type":"Feature","properties":{"nombre":"Nuestra Señora de la Encarnación de Itapúa","fundacion":1615,"fundador":"","cierre":"","poblacion":"","nombre_alternativo":"","nombre_antiguo":"","wikipedia":"es:Encarnación (Paraguay)","sitio_web":"https://es.wikipedia.org/wiki/Encarnaci%C3%B3n_(Paraguay)","foto":"","website:whc.unesco":""},"geometry":{"type":"Point","coordinates":[-55.8663547,-27.3390832]}},{"type":"Feature","properties":{"marker-color":"#7e7e7e","marker-size":"medium","marker-symbol":"","nombre":"Nuestra Señora de la Limpia Concepción del Ibitiracuá","fundacion":1619,"fundador":"Roque González","cierre":"","poblacion":"","nombre_alternativo":"","nombre_antiguo":"","wikipedia":"es:Concepción de la Sierra","sitio_web":"https://es.wikipedia.org/wiki/Concepci%C3%B3n_de_la_Sierra","foto":"","website:whc.unesco":""},"geometry":{"type":"Point","coordinates":[-55.5203524,-27.9804161]}},{"type":"Feature","properties":{"nombre":"Corpus Christi","fundacion":1622,"fundador":"","cierre":"","poblacion":"","nombre_alternativo":"Corpus","nombre_antiguo":"","wikipedia":"es:Corpus (Misiones)","sitio_web":"https://es.wikipedia.org/wiki/Corpus_(Misiones)","foto":"","website:whc.unesco":""},"geometry":{"type":"Point","coordinates":[-55.4985016,-27.1262979]}},{"type":"Feature","properties":{"nombre":"Santa María la Mayor","fundacion":1626,"fundador":"","cierre":1767,"poblacion":"","nombre_alternativo":"","nombre_antiguo":"","wikipedia":"es:Misión jesuítica de Santa María la Mayor","sitio_web":"https://es.wikipedia.org/wiki/Misi%C3%B3n_jesu%C3%ADtica_de_Santa_Mar%C3%ADa_la_Mayor","foto":"https://upload.wikimedia.org/wikipedia/commons/thumb/f/fc/Ruinas_Santa_Maria_Capilla_Viviendas.jpg/1024px-Ruinas_Santa_Maria_Capilla_Viviendas.jpg","website:whc.unesco":"http://whc.unesco.org/en/list/275"},"geometry":{"type":"Point","coordinates":[-55.34481719953,-27.88778429234]}},{"type":"Feature","properties":{"nombre":"São Nicolau","fundacion":1626,"fundador":"","cierre":"","poblacion":"","nombre_alternativo":"","nombre_antiguo":"","wikipedia":"pt:São Nicolau (Rio Grande do Sul)","sitio_web":"http://www.saonicolau.rs.gov.br/VisualizaConteudo.aspx?ID=1024","foto":"","website:whc.unesco":""},"geometry":{"type":"Point","coordinates":[-55.2614423,-28.1850962]}},{"type":"Feature","properties":{"nombre":"Nuestra Señora de los Tres Reyes de Yapeyú","fundacion":1627,"fundador":"","cierre":"","poblacion":"","nombre_alternativo":"","nombre_antiguo":"","wikipedia":"es:Yapeyú","sitio_web":"https://es.wikipedia.org/wiki/Yapey%C3%BA","foto":"","website:whc.unesco":""},"geometry":{"type":"Point","coordinates":[-56.817338168621,-29.4710988506269]}},{"type":"Feature","properties":{"nombre":"Nuestra Señora de la Candelaria","fundacion":1627,"fundador":"","cierre":"","poblacion":"","nombre_alternativo":"Nuestra Señora de la Candelaria del Caazapaminí","nombre_antiguo":"","wikipedia":"es:Candelaria (Misiones)","sitio_web":"https://es.wikipedia.org/wiki/Candelaria_(Misiones)","foto":"","website:whc.unesco":""},"geometry":{"type":"Point","coordinates":[-55.7549732,-27.4538407]}},{"type":"Feature","properties":{"nombre":"San Javier","fundacion":1629,"fundador":"","cierre":"","poblacion":"","nombre_alternativo":"","nombre_antiguo":"","wikipedia":"es:San Javier (Misiones)","sitio_web":"https://es.wikipedia.org/wiki/San_Javier_(Misiones)","foto":"","website:whc.unesco":""},"geometry":{"type":"Point","coordinates":[-55.1353169,-27.8740545]}},{"type":"Feature","properties":{"nombre":"Asunción de la Cruz de Mbororé","fundacion":1630,"fundador":"","cierre":"","poblacion":"","nombre_alternativo":"","nombre_antiguo":"","wikipedia":"es:La Cruz (Corrientes)","sitio_web":"https://es.wikipedia.org/wiki/La_Cruz_(Corrientes)","foto":"","website:whc.unesco":""},"geometry":{"type":"Point","coordinates":[-56.6382532,-29.1784567]}},{"type":"Feature","properties":{"nombre":"San Carlos","fundacion":1631,"fundador":"","cierre":"","poblacion":"","nombre_alternativo":"","nombre_antiguo":"","wikipedia":"es:San Carlos (Corrientes)","sitio_web":"https://es.wikipedia.org/wiki/San_Carlos_(Corrientes)","foto":"","website:whc.unesco":""},"geometry":{"type":"Point","coordinates":[-55.8997406,-27.7436859]}},{"type":"Feature","properties":{"nombre":"Santo Tomé","fundacion":1632,"fundador":"","cierre":"","poblacion":"","nombre_alternativo":"","nombre_antiguo":"","wikipedia":"es:Santo Tomé (Corrientes)","sitio_web":"https://es.wikipedia.org/wiki/Santo_Tom%C3%A9_(Corrientes)","foto":"","website:whc.unesco":""},"geometry":{"type":"Point","coordinates":[-56.0350093,-28.5501744]}},{"type":"Feature","properties":{"nombre":"San Cosme y Damián","fundacion":1632,"fundador":"","cierre":"","poblacion":"","nombre_alternativo":"","nombre_antiguo":"","wikipedia":"es:Misión Jesuítica de San Cosme y Damián","sitio_web":"https://es.wikipedia.org/wiki/Misi%C3%B3n_Jesu%C3%ADtica_de_San_Cosme_y_Dami%C3%A1n","foto":"https://upload.wikimedia.org/wikipedia/commons/b/bb/San_Cosme_y_Damian_-_Iglesia_de_la_Reduccion.jpg","website:whc.unesco":""},"geometry":{"type":"Point","coordinates":[-56.3320539,-27.3175541]}},{"type":"Feature","properties":{"nombre":"San José","fundacion":1633,"fundador":"","cierre":"","poblacion":"","nombre_alternativo":"","nombre_antiguo":"","wikipedia":"es:San José (Misiones)","sitio_web":"https://es.wikipedia.org/wiki/San_Jos%C3%A9_(Misiones)","foto":"","website:whc.unesco":""},"geometry":{"type":"Point","coordinates":[-55.7795734,-27.7703236]}},{"type":"Feature","properties":{"nombre":"Santa Ana","fundacion":1633,"fundador":"","cierre":1767,"poblacion":"","nombre_alternativo":"","nombre_antiguo":"","wikipedia":"es:Misión jesuítica de Santa Ana","sitio_web":"https://es.wikipedia.org/wiki/Misi%C3%B3n_jesu%C3%ADtica_de_Santa_Ana","foto":"https://upload.wikimedia.org/wikipedia/commons/thumb/2/27/Ruinas_Jesu%C3%ADticas_de_Santa_Ana.JPG/1024px-Ruinas_Jesu%C3%ADticas_de_Santa_Ana.JPG","website:whc.unesco":"http://whc.unesco.org/en/list/275"},"geometry":{"type":"Point","coordinates":[-55.5803382396698,-27.3884013400428]}},{"type":"Feature","properties":{"nombre":"Santos Apóstoles Pedro y Pablo","fundacion":1638,"fundador":"","cierre":"","poblacion":"","nombre_alternativo":"","nombre_antiguo":"","wikipedia":"es:Apóstoles (Argentina)","sitio_web":"https://es.wikipedia.org/wiki/Ap%C3%B3stoles_(Argentina)","foto":"","website:whc.unesco":""},"geometry":{"type":"Point","coordinates":[-55.7506799697876,-27.9103198403152]}},{"type":"Feature","properties":{"nombre":"Santos Mártires","fundacion":1639,"fundador":"","cierre":"","poblacion":"","nombre_alternativo":"","nombre_antiguo":"","wikipedia":"es:Mártires (Misiones)","sitio_web":"https://es.wikipedia.org/wiki/M%C3%A1rtires_(Misiones)","foto":"","website:whc.unesco":""},"geometry":{"type":"Point","coordinates":[-55.3785093,-27.4227897]}},{"type":"Feature","properties":{"nombre":"Santa María de Fe","fundacion":1647,"fundador":"","cierre":"","poblacion":"","nombre_alternativo":"","nombre_antiguo":"","wikipedia":"es:Santa María de Fe (Paraguay)","sitio_web":"https://es.wikipedia.org/wiki/Santa_Mar%C3%ADa_de_Fe_(Paraguay)","foto":"","website:whc.unesco":""},"geometry":{"type":"Point","coordinates":[-56.9439451,-26.7834013]}},{"type":"Feature","properties":{"nombre":"Santiago Apóstol","fundacion":1669,"fundador":"","cierre":"","poblacion":"","nombre_alternativo":"","nombre_antiguo":"San Ignacio de Caaguazú","wikipedia":"es:Santiago (Paraguay)","sitio_web":"https://es.wikipedia.org/wiki/Santiago_(Paraguay)","foto":"https://upload.wikimedia.org/wikipedia/commons/thumb/3/37/Museo_Jesuita_de_Santiago.JPG/640px-Museo_Jesuita_de_Santiago.JPG","website:whc.unesco":""},"geometry":{"type":"Point","coordinates":[-56.7631713,-27.1407485]}},{"type":"Feature","properties":{"nombre":"São Francisco de Borja","fundacion":1682,"fundador":"","cierre":"","poblacion":"","nombre_alternativo":"","nombre_antiguo":"","wikipedia":"pt:São Borja","sitio_web":"https://pt.wikipedia.org/wiki/S%C3%A3o_Borja","foto":"","website:whc.unesco":""},"geometry":{"type":"Point","coordinates":[-56.0057473,-28.6609598]}},{"type":"Feature","properties":{"nombre":"Jesús de Tavarangué","fundacion":1685,"fundador":"","cierre":"","poblacion":"","nombre_alternativo":"","nombre_antiguo":"","wikipedia":"es:Misión jesuítica de Jesús de Tavarangué","sitio_web":"https://es.wikipedia.org/wiki/Misi%C3%B3n_jesu%C3%ADtica_de_Jes%C3%BAs_de_Tavarangu%C3%A9","foto":"https://upload.wikimedia.org/wikipedia/commons/thumb/f/fa/Jesus_de_Tavarangue_-_Main_building_from_the_left_2.JPG/1024px-Jesus_de_Tavarangue_-_Main_building_from_the_left_2.JPG","website:whc.unesco":"http://whc.unesco.org/en/list/648"},"geometry":{"type":"Point","coordinates":[-55.7523214817047,-27.0549456427151]}},{"type":"Feature","properties":{"nombre":"São Miguel Arcanjo","fundacion":1687,"fundador":"","cierre":1756,"poblacion":"","nombre_alternativo":"","nombre_antiguo":"","wikipedia":"pt:Sítio Arqueológico de São Miguel Arcanjo","sitio_web":"https://pt.wikipedia.org/wiki/S%C3%ADtio_Arqueol%C3%B3gico_de_S%C3%A3o_Miguel_Arcanjo","foto":"https://upload.wikimedia.org/wikipedia/commons/thumb/6/68/S%C3%ADtio_Arqueol%C3%B3gico_de_S%C3%A3o_Miguel_Arcanjo_01.jpg/1024px-S%C3%ADtio_Arqueol%C3%B3gico_de_S%C3%A3o_Miguel_Arcanjo_01.jpg","website:whc.unesco":"http://whc.unesco.org/en/list/275"},"geometry":{"type":"Point","coordinates":[-54.5548771,-28.5473261]}},{"type":"Feature","properties":{"nombre":"São Luiz Gonzaga","fundacion":1687,"fundador":"","cierre":"","poblacion":"","nombre_alternativo":"","nombre_antiguo":"","wikipedia":"pt:São Luiz Gonzaga","sitio_web":"https://pt.wikipedia.org/wiki/S%C3%A3o_Luiz_Gonzaga","foto":"","website:whc.unesco":""},"geometry":{"type":"Point","coordinates":[-54.9613119,-28.4082739]}},{"type":"Feature","properties":{"nombre":"São Lourenço Mártir","fundacion":1690,"fundador":"","cierre":"","poblacion":"","nombre_alternativo":"","nombre_antiguo":"","wikipedia":"pt:Sítio Arqueológico de São Lourenço Mártir","sitio_web":"https://pt.wikipedia.org/wiki/S%C3%ADtio_Arqueol%C3%B3gico_de_S%C3%A3o_Louren%C3%A7o_M%C3%A1rtir","foto":"https://upload.wikimedia.org/wikipedia/commons/thumb/6/6f/S%C3%ADtio_Arqueol%C3%B3gico_de_S%C3%A3o_Louren%C3%A7o_M%C3%A1rtir_01.jpg/1024px-S%C3%ADtio_Arqueol%C3%B3gico_de_S%C3%A3o_Louren%C3%A7o_M%C3%A1rtir_01.jpg","website:whc.unesco":""},"geometry":{"type":"Point","coordinates":[-54.7099097,-28.4617043]}},{"type":"Feature","properties":{"nombre":"São João Batista","fundacion":1697,"fundador":"","cierre":"","poblacion":"","nombre_alternativo":"","nombre_antiguo":"","wikipedia":"pt:Sítio Arqueológico de São João Batista","sitio_web":"https://pt.wikipedia.org/wiki/S%C3%ADtio_Arqueol%C3%B3gico_de_S%C3%A3o_Jo%C3%A3o_Batista","foto":"https://upload.wikimedia.org/wikipedia/commons/thumb/c/c2/S%C3%ADtio_Arqueol%C3%B3gico_de_S%C3%A3o_Jo%C3%A3o_Batista_07.jpg/1024px-S%C3%ADtio_Arqueol%C3%B3gico_de_S%C3%A3o_Jo%C3%A3o_Batista_07.jpg","website:whc.unesco":""},"geometry":{"type":"Point","coordinates":[-54.399062,-28.4582177]}},{"type":"Feature","properties":{"nombre":"Santa Rosa de Lima","fundacion":1698,"fundador":"","cierre":"","poblacion":"","nombre_alternativo":"","nombre_antiguo":"","wikipedia":"es:Santa Rosa de Lima (Paraguay)","sitio_web":"https://es.wikipedia.org/wiki/Santa_Rosa_de_Lima_(Paraguay)","foto":"https://upload.wikimedia.org/wikipedia/commons/c/cf/Paraguay_Santa_Rosa_Campanario.jpg","website:whc.unesco":""},"geometry":{"type":"Point","coordinates":[-56.8491883,-26.8867399]}},{"type":"Feature","properties":{"nombre":"Santísima Trinidad del Paraná","fundacion":1706,"fundador":"","cierre":"","poblacion":"","nombre_alternativo":"","nombre_antiguo":"","wikipedia":"es:Santísima Trinidad del Paraná","sitio_web":"https://es.wikipedia.org/wiki/Sant%C3%ADsima_Trinidad_del_Paran%C3%A1","foto":"https://upload.wikimedia.org/wikipedia/commons/2/2a/TrinidadKirche.jpg","website:whc.unesco":"http://whc.unesco.org/en/list/648"},"geometry":{"type":"Point","coordinates":[-55.7036571,-27.1313111]}},{"type":"Feature","properties":{"nombre":"Santo Ângelo","fundacion":1706,"fundador":"","cierre":"","poblacion":"","nombre_alternativo":"Catedral Angelopolitana","nombre_antiguo":"","wikipedia":"pt:Catedral Angelopolitana","sitio_web":"https://pt.wikipedia.org/wiki/Catedral_Angelopolitana","foto":"https://upload.wikimedia.org/wikipedia/commons/a/ad/Igreja_ruina.JPG","website:whc.unesco":""},"geometry":{"type":"Point","coordinates":[-54.2617258,-28.3051037]}},{"type":"Feature","properties":{"nombre":"Jesús de Tavarangué","fundacion":1685,"fundador":"","cierre":"","poblacion":"","nombre_alternativo":"","nombre_antiguo":"","wikipedia":"es:Misión jesuítica de Jesús de Tavarangué","sitio_web":"https://es.wikipedia.org/wiki/Misi%C3%B3n_jesu%C3%ADtica_de_Jes%C3%BAs_de_Tavarangu%C3%A9","foto":"https://upload.wikimedia.org/wikipedia/commons/thumb/f/fa/Jesus_de_Tavarangue_-_Main_building_from_the_left_2.JPG/1024px-Jesus_de_Tavarangue_-_Main_building_from_the_left_2.JPG","website:whc.unesco":"http://whc.unesco.org/en/list/648"},"geometry":{"type":"Point","coordinates":[-55.7531744241714,-27.0551462930738]}},{"type":"Feature","properties":{"marker-color":"#7e7e7e","marker-size":"medium","marker-symbol":"","nombre":"Nuestra Señora de Loreto","fundacion":1610,"fundador":"José Cataldino","cierre":1767,"poblacion":"","nombre_alternativo":"","nombre_antiguo":"","wikipedia":"es:Nuestra Señora de Loreto (Argentina)","sitio_web":"https://es.wikipedia.org/wiki/Nuestra_Se%C3%B1ora_de_Loreto_(Argentina)","foto":"https://upload.wikimedia.org/wikipedia/commons/thumb/5/50/Ruinas_Loreto_Iglesia_02.jpg/1280px-Ruinas_Loreto_Iglesia_02.jpg","website:whc.unesco":"http://whc.unesco.org/en/list/275"},"geometry":{"type":"Point","coordinates":[-55.5169630050659,-27.3327160748262]}},{"type":"Feature","properties":{"marker-color":"#7e7e7e","marker-size":"medium","marker-symbol":"","nombre":"San Ignacio Miní","fundacion":1611,"fundador":"Simón Masseta","cierre":1767,"poblacion":"","nombre_alternativo":"","nombre_antiguo":"","wikipedia":"es:San Ignacio Miní","sitio_web":"https://es.wikipedia.org/wiki/San_Ignacio_Min%C3%AD","foto":"https://upload.wikimedia.org/wikipedia/commons/thumb/d/d6/San_Ignacio_Min%C3%AD-2.jpg/1024px-San_Ignacio_Min%C3%AD-2.jpg","website:whc.unesco":"http://whc.unesco.org/en/list/275"},"geometry":{"type":"Point","coordinates":[-55.5318009853363,-27.2544769741401]}},{"type":"Feature","properties":{"nombre":"Santa Ana","fundacion":1633,"fundador":"","cierre":1767,"poblacion":"","nombre_alternativo":"","nombre_antiguo":"","wikipedia":"es:Misión jesuítica de Santa Ana","sitio_web":"https://es.wikipedia.org/wiki/Misi%C3%B3n_jesu%C3%ADtica_de_Santa_Ana","foto":"https://upload.wikimedia.org/wikipedia/commons/thumb/2/27/Ruinas_Jesu%C3%ADticas_de_Santa_Ana.JPG/1024px-Ruinas_Jesu%C3%ADticas_de_Santa_Ana.JPG","website:whc.unesco":"http://whc.unesco.org/en/list/275"},"geometry":{"type":"Point","coordinates":[-55.5807566642761,-27.3884203924912]}},{"type":"Feature","properties":{"nombre":"Santa María la Mayor","fundacion":1626,"fundador":"","cierre":1767,"poblacion":"","nombre_alternativo":"","nombre_antiguo":"","wikipedia":"es:Misión jesuítica de Santa María la Mayor","sitio_web":"https://es.wikipedia.org/wiki/Misi%C3%B3n_jesu%C3%ADtica_de_Santa_Mar%C3%ADa_la_Mayor","foto":"https://upload.wikimedia.org/wikipedia/commons/thumb/f/fc/Ruinas_Santa_Maria_Capilla_Viviendas.jpg/1024px-Ruinas_Santa_Maria_Capilla_Viviendas.jpg","website:whc.unesco":"http://whc.unesco.org/en/list/275"},"geometry":{"type":"Point","coordinates":[-55.34481719953,-27.88778429234]}},{"type":"Feature","properties":{"nombre":"Santísima Trinidad del Paraná","fundacion":1706,"fundador":"","cierre":"","poblacion":"","nombre_alternativo":"","nombre_antiguo":"","wikipedia":"es:Santísima Trinidad del Paraná","sitio_web":"https://es.wikipedia.org/wiki/Sant%C3%ADsima_Trinidad_del_Paran%C3%A1","foto":"https://upload.wikimedia.org/wikipedia/commons/2/2a/TrinidadKirche.jpg","website:whc.unesco":"http://whc.unesco.org/en/list/648"},"geometry":{"type":"Point","coordinates":[-55.7036571,-27.1313111]}},{"type":"Feature","properties":{"nombre":"São Miguel Arcanjo","fundacion":1687,"fundador":"","cierre":1756,"poblacion":"","nombre_alternativo":"","nombre_antiguo":"","wikipedia":"pt:Sítio Arqueológico de São Miguel Arcanjo","sitio_web":"https://pt.wikipedia.org/wiki/S%C3%ADtio_Arqueol%C3%B3gico_de_S%C3%A3o_Miguel_Arcanjo","foto":"https://upload.wikimedia.org/wikipedia/commons/thumb/6/68/S%C3%ADtio_Arqueol%C3%B3gico_de_S%C3%A3o_Miguel_Arcanjo_01.jpg/1024px-S%C3%ADtio_Arqueol%C3%B3gico_de_S%C3%A3o_Miguel_Arcanjo_01.jpg","website:whc.unesco":"http://whc.unesco.org/en/list/275"},"geometry":{"type":"Point","coordinates":[-54.5548771,-28.5473261]}}]}
